stop_id,stop_name,stop_lat,stop_lon,zone_id
30520,2nd St. W. & Andrieux (Ac. Son. Medical Ctr.),38.28869445,-122.461909,55580
30230,2nd St. W. & Andrieux (Sonoma Medical Ctr.),38.28804794,-122.4618134,55580
30220,2nd St. W. & Bettencourt St.,38.28691122,-122.4619977,55580
30530,2nd St. West & Bettencourt St.,38.28674937,-122.4621864,55580
30510,2nd St. West & Hwy. 12,38.29090472,-122.4615479,55580
30240,2nd St. W. & Perkins St.,38.28990258,-122.4615223,55580
37100,3rd St. & D St.,38.4407383,-122.7111752,55582
84100,3rd St. West & Perkins St.,38.28910403,-122.4640984,55580
87000,3rd St. West & Perkins St.,38.28909652,-122.4639501,55580
31100,5th St. West & Andrieux St.,38.28848692,-122.4686598,55580
29900,5th St. W. & W. Napa,38.29227353,-122.4682875,55580
31200,5th St. W. & W. Napa,38.29150198,-122.4681456,55580
25900,Ac. Oakmont Golf Course,38.43266568,-122.5943358,55579
55100,Ac. Petaluma Estates MHP,38.26455448,-122.6528389,55583
93600,Across from Rite Aid,38.6159256731,-122.8729721015,55584
00700,Ac. Santa Rosa Junior College,38.45503268,-122.7172169,55582
15790,Administration Dr. & Paulin,38.464191,-122.721779,55582
01010,Administration Dr. & Paulin,38.46425226,-122.7220606,55582
01020,Administration Dr. & Ventura,38.46416122,-122.7239988,55582
15780,Administration Dr. & Ventura Ave.,38.464062,-122.723862,55582
86400,Adobe Rd. & Stage Gulch Rd.,38.23621691,-122.5269582,55580
84900,Adobe Rd. & Stage Gulch Rd.,38.23655957,-122.5271605,55580
51200,Adrian Dr. & Adrian Ct.,38.33776349,-122.7053861,55583
51300,Adrian Dr. & Arlen Dr.,38.33967798,-122.7057163,55583
44400,Adrian Dr. & Bonnie Ave.,38.33212509,-122.7003778,55583
51000,Adrian Dr. & Bonnie Ave.,38.33225387,-122.7005409,55583
51100,Adrian & Southwest,38.33582356,-122.7050337,55583
44300,Adrian/ Southwest,38.3354751848,-122.7051079273,55583
27900,Agua Caliente Rd. & Hwy. 12,38.32550862,-122.4885654,55580
32800,Agua Caliente Rd. & Hwy. 12,38.3256509,-122.4886709,55580
32900,Agua Caliente Rd. & Lake St.,38.32510088,-122.4897554,55580
27800,Agua Caliente Rd. & Lake St.,38.32390851,-122.4919885,55580
33000,Agua Caliente Rd. & Las Flores Dr,38.32406564,-122.4920952,55580
12900,Airport Blvd. & Aviation Blvd.,38.51123813,-122.781666,55584
14400,Airport Blvd. & Aviation Blvd.,38.51096137,-122.7804182,55584
14000,Airport Blvd. & Brickway Blvd.,38.51096978,-122.7932966,55584
13100,Airport Blvd. & Brickway Blvd.,38.51119173,-122.7935235,55584
13000,Airport Blvd. & Concourse Blvd.,38.51123797,-122.7867148,55584
13200,Airport Blvd. & N. Laughlin Rd.,38.51113418,-122.8006591,55584
13310,Airport Blvd. & N. Laughlin Rd.,38.51091307,-122.801606,55584
13210,Airport Blvd. & Ordinance Rd.,38.51108419,-122.8028587,55584
14310,Airport Blvd. & Regional Pkwy.,38.5110515878,-122.7868235529,55584
94500,Alliance Medical Center,38.6267718659,-122.865088661,55584
64700,Amarosa Academy,38.39713582,-122.7234076,55582
90000,Arata Ln. & Brooks Rd. Embree Ln.,38.5621307025,-122.8043053991,55584
91100,Arata Ln. & Old Redwood Hwy.,38.561875076,-122.8211461029,55584
89900,Arata Ln. & Troon Ct.,38.5621736935,-122.8021696414,55584
97800,Arch View (Blind Beach),38.4406911136,-123.1264984029,55585
51400,Arlen/Santa Alicia,38.33998342,-122.7098338,55583
33600,Arnold Dr.,38.3553199,-122.5251394,55579
27200,Arnold Dr.,38.35416289,-122.5244585,55579
33800,Arnold Dr. & Carquinez Ave.,38.36383294,-122.5243097,55579
27600,Arnold Dr. & Madrone Rd.,38.33870859,-122.5129367,55579
33200,Arnold Dr. & Madrone Rd.,38.33942029,-122.5129368,55579
33300,Arnold Dr. & Sonoma Glen Circle,38.3420101,-122.5135722,55579
27500,Arnold Dr. & Sonoma Glen Circle,38.34198954,-122.5137598,55579
33400,Arnold Dr. & Traxler,38.3464424,-122.5143138,55579
27400,Arnold Dr. & Traxler Dr.,38.34632999,-122.514483,55579
27000,Arnold Dr. & Warm Springs Rd.,38.3638298,-122.5244788,55579
08200,Asti,38.76139674,-122.9756806,55581
06700,Asti,38.76157999,-122.9754915,55581
08110,Asti Rd. & Theresa Dr.,38.76610079,-122.9919318,55581
06710,Asti Rd. & Theresa Dr.,38.76610151,-122.9913956,55581
08300,Asti Rd. & Washington School Rd.,38.75611211,-122.9712242,55581
06600,Asti Rd. & Washington School Rd.,38.75638889,-122.9712799,55581
31700,Bay St./Verano Ave. (ac. El Verano P.O.),38.30051707,-122.4872693,55580
18020,Beach/ Orchard,38.4848257622,-123.0107734621,55585
65410,Bellevue Ave. & Moorland Ave.,38.4019364705,-122.7180281281,55582
88500,Bell Rd. & Conde Ln.,38.5369476866,-122.8014473808,55584
97200,Blair St. & Clark Ave.,38.7979634556,-123.0146394256,55581
20730,Bodega Ave. & N. Main St.,38.402084,-122.824493,55578
20830,Bodega Ave. & Pleasant Hill Ave.,38.39827084,-122.8389857,55578
20820,Bodega Ave. & Virginia Ave.,38.39821811,-122.8344564,55578
98300,Bodega Bay Post Office (Eastbound),38.3242009539,-123.0390595266,55585
99100,Bodega Bay Post Office (Westbound),38.3242272485,-123.0389920189,55585
98500,Bodega (Eastbound),38.3456810231,-122.9736877254,55585
98800,Bodega Hwy. & Grandview,38.3929096727,-122.8772593361,55578
98700,Bodega Hwy. & Sexton Rd.,38.3914389175,-122.8795691109,55578
99000,Bodega (Westbound),38.3457563177,-122.9737519628,55585
62770,Bodway & Maurice,38.33433504,-122.6777819,55583
62760,Bodway Pkwy./ Middlebrook Way,38.33205724,-122.6762095,55583
31750,Boyes Blvd. & Poplar,38.31418351,-122.4842927,55580
82100,Boyes Blvd. @ Post Office,38.3142365475,-122.482571473,55580
31730,Boyes Blvd. & Railroad Ave.,38.31173252,-122.4921335,55580
82300,Boyes Blvd. & Riverside Dr.,38.31326561,-122.4882235,55580
31740,Boyes Blvd. & Riverside Dr.,38.31314734,-122.4881561,55580
82200,Boyes Blvd. & Spring St.,38.31404129,-122.4852375,55580
28300,Boyes Hot Springs,38.31351196,-122.4814506,55580
32400,Boyes Hot Springs (Sonoma Mission Inn),38.3145854,-122.4817477,55580
94200,Bridle Path & Spur Ridge Lane,38.6412249613,-122.8675118993,55584
30720,Broadway & Leveroni Rd.,38.2761560315,-122.4604472375,55580
86720,Broadway & Leveroni Rd.,38.27715705,-122.4599655,55580
30600,Broadway & Maple St.,38.28982359,-122.4583664,55580
30400,Broadway & Patten St.,38.28984489,-122.4580508,55580
30710,Broadway & W MacArthur,38.2840079703,-122.4592338727,55580
97000,Brookside Dr. & Cloverdale Blvd.,38.7917312269,-123.0171622834,55581
96400,Brookside Dr. & Foothill Blvd.,38.7913801264,-123.0197186318,55581
90200,Brooks Rd. & Foothill Dr.,38.5566839536,-122.80753241,55584
90300,Brooks Rd. & Glen Miller Dr. (Lakewood Village),38.5511211631,-122.8075336683,55584
90100,Brooks Rd. & Jessica Dr.,38.5600178426,-122.8075419474,55584
00200,B St. & Ross St.,38.4413367874,-122.7167993978,55582
16600,B St. & Seventh St.,38.44089571,-122.7167027,55582
20800,Burbank Heights,38.39733204,-122.8335403,55578
20810,Burbank Heights,38.39536852,-122.8339722,55578
20811,Burbank Heights,38.396469942,-122.8331202415,55578
71040,Burton Ave. & Adrian Dr.,38.33166488,-122.6978651,55583
70710,Burton Ave. & Adrin Dr.,38.3314061191,-122.6978123188,55583
70730,Burton Ave. & Bernice Ave.,38.3369857726,-122.6981180906,55583
71020,Burton Ave. & Bernice Ave.,38.33711694,-122.6984231,55583
71030,Burton Ave. & Bonnie Ave.,38.33426044,-122.6967434,55583
70720,Burton Ave. & Bonnie Ave.,38.3340234761,-122.6964658499,55583
42810,Business Park Dr. & Redwood Dr.,38.35778802,-122.7153751,55583
72030,Business Park Dr. & Redwood Dr.,38.35760723,-122.7143603,55583
88400,Cameron Dr. & Bell Rd.,38.5340263406,-122.8030558458,55584
62710,Camino Colegio & East Cotati Ave.,38.33374242,-122.687626,55583
62720,Camino Colegio & Magnolia,38.32851942,-122.6866302,55583
62740,Camino Colegio/Manchester,38.32519458,-122.6811075,55583
62730,Camino Colegio & Maple,38.32624353,-122.6852626,55583
69800,Camp Meeker (Bohemian Hwy. & Market),38.425193014,-122.9592916901,55585
17100,Camp Meeker (Bohemian Hwy. & Van Ness Ave.),38.42422487,-122.9566357,55585
92600,Catholic Church (Matheson St.),38.6107329593,-122.8680191869,55584
95500,Champlain Ave. & Cloverdale Blvd.,38.8123488648,-123.0225859372,55581
72600,Chase Bank,38.34833123,-122.7075542,55583
96200,Cherry Creek Rd. & Cloverdale Blvd.,38.7948814126,-123.0186959555,55581
96300,Cherry Creek Rd. & Foothill Blvd.,38.7947326773,-123.0207055739,55581
07700,Cloverdale Blvd & Brookside Dr.,38.79103546,-123.0175593,55581
07100,Cloverdale Blvd. & Brookside Dr.,38.79200937,-123.0174969,55581
07000,Cloverdale Blvd. & Church Ln.,38.78609006,-123.0141114,55581
95200,Cloverdale Blvd. & Fourth St.,38.8081623403,-123.0189965272,55581
07600,Cloverdale Blvd & Franklin St.,38.79820655,-123.0184563,55581
07500,Cloverdale Blvd. & Healdsburg Ave.,38.800529,-123.01667,55581
07900,Cloverdale Blvd & Sandholm Dr.,38.78107398,-123.0090673,55581
06900,Cloverdale Blvd. & Sandholm Dr.,38.78197143,-123.0099086,55581
95400,Cloverdale Blvd. & School St.,38.8107048396,-123.0208940494,55581
07300,Cloverdale Blvd. & South St.,38.80027783,-123.0164808,55581
07200,Cloverdale Blvd. & Tarman Dr.,38.79816744,-123.0181411,55581
07800,Cloverdale Blvd & Treadway,38.7843695,-123.0129716,55581
96500,Cloverdale Blvd. & Treadway Blvd. (CVS Store),38.7849546111,-123.0139883009,55581
96600,"Cloverdale Blvd. & Treadway Blvd. (Ray's Market)",38.7838978129,-123.014694718,55581
07400,Cloverdale City Hall & Plaza,38.805965,-123.017418,55581
07310,Cloverdale Depot,38.79806417,-123.011823,55581
15700,Coddingtown,38.45713299,-122.7324378,55582
43810,Commerce Blvd. & Alison,38.33892972,-122.7123664,55583
51500,Commerce Blvd. & Arlen Dr.,38.34077442,-122.7122323,55583
43800,Commerce Blvd. & Arlen Dr.,38.34087434,-122.7123831,55583
52000,Commerce Blvd. & Cascade Ct.,38.35954498,-122.7124414,55583
51600,Commerce Blvd. & Enterprise Dr.,38.34511017,-122.7115498,55583
43700,Commerce Blvd. & Enterprise Dr.,38.34450109,-122.7122174,55583
43500,Commerce Blvd. & Padre Parkway,38.35011198,-122.7097556,55583
43400,Commerce Blvd. & Professional Center Dr.,38.35390495,-122.7125357,55583
43600,Commerce Blvd. & R.P. Expressway,38.34730697,-122.7097547,55583
51700,Commerce Blvd. & R.P. Expressway,38.34761562,-122.7094376,55583
51800,Commerce Blvd. & RP Expressway,38.34991393,-122.7094897,55583
51900,Commerce Blvd/State Farm,38.35388992,-122.7123491,55583
43300,Commerce Blvd. & State Farm Dr.,38.35809394,-122.7126844,55583
52100,Commerce Blvd. & Utility Ct.,38.36164058,-122.7118573,55583
43200,Commerce Blvd. & Utility Ct.,38.36092791,-122.7125522,55583
50840,Commerce Blvd. & Wilford Ln.,38.33500387,-122.7123589,55583
62300,Commerce Blvd. & Wilford Ln.,38.33578352,-122.712376,55583
88700,Conde Ln.,38.5362236507,-122.8001727649,55584
88900,Conde Ln. & American Way,38.5296553488,-122.798234808,55584
88800,Conde Ln. & Den Beste Ct.,38.5342667698,-122.7983706072,55584
88600,Conde Ln. (Windsor MHP),38.5395250748,-122.8039342314,55584
13120,Copperhill Parkway & N. Laughlin Rd.,38.50752046,-122.7979583,55584
13800,Copperhill Pkwy. & N. Laughlin Rd.,38.50722201,-122.7978727,55584
66000,Corby Ave. & Bellevue Ave.,38.40737935,-122.7164909,55582
65500,Corby Ave. & Bellevue Ave.,38.40764857,-122.7163375,55582
65900,Corby Ave. & Hearn Ave.,38.41129472,-122.7164838,55582
65600,Corby Ave. & Hearn Ave.,38.41039025,-122.7163348,55582
65700,Corby Extension,38.41348062,-122.7193553,55582
65800,Corby Extension,38.41450249,-122.7180034,55582
50800,Cotati Hub,38.3266211,-122.7054706,55583
44800,Cotati Hub,38.32619993,-122.7061734,55583
71500,Country Club Dr. & Civic Center Dr.,38.34663134,-122.6963733,55583
71400,Country Club Dr. & Copeland Creek,38.34303679,-122.6949625,55583
73300,Country Club Dr. & Ellen St.,38.35565236,-122.6937922,55583
73200,Country Club Dr. & Emily,38.35179837,-122.695478,55583
73710,Country Club Dr. & Hudis,38.36464409,-122.6961639,55583
73100,Country Club Dr. & Santa Cruz Way,38.34964807,-122.6954733,55583
73400,Country Club/ Golf Course,38.36185722,-122.6943612,55583
15770,County Admin. Center (Ventura Ave.),38.466534,-122.724426,55582
01030,County Admin. Center (Ventura Ave.),38.46654093,-122.7242188,55582
20850,Covert Ln. & Pleasant Hill,38.40539476,-122.8408128,55578
20860,Covert Ln. & Ragle Rd.,38.40540581,-122.8449809,55578
70900,Credo High School,38.3406575,-122.6924422,55583
94900,CVS (Piper. St.),38.614228404,-122.8708413011,55584
86800,"DeAnza/Moon Valley MHP (5th St. W. & Emily's Meadow Ct.)",38.28321081,-122.4694655,55580
84400,DeAnza/Moon Valley MHP (Inside),38.28399801,-122.4697447,55580
98400,Doran Park (Bodega Bay),38.3062906949,-123.0536697248,55585
05310,Dry Creek Rd. & Healdsburg Ave.,38.62636291,-122.8737646,55584
17400,D St. & Bohemian Hwy.,38.4677389665,-123.0106600877,55585
97900,"Duncan's Landing",38.4011955462,-123.0944557969,55585
17340,Duncans Mills,38.453416066,-123.0536903381,55585
99200,Duncans Mills (Eastbound),38.4531464373,-123.053945326,55585
97600,Duncans Mills (Westbound),38.4531187971,-123.0542292445,55585
08000,Dutcher Creek Rd. & Hiatt Rd.,38.77494848,-123.0022061,55581
21030,Earl Baum Ctr. (Occidental Rd.),38.42373072,-122.7803922,55578
44600,East Cotati Ave. & Adrian Dr.,38.32972436,-122.6971798,55583
63000,East Cotati Ave. & Bodway/Vine,38.33599657,-122.6773239,55583
58200,East Cotati Ave. & Camino Colegio Ave.,38.33392131,-122.6887091,55583
62800,East Cotati Ave. & Camino Colegio Ave.,38.33495475,-122.6868396,55583
58100,East Cotati Ave. & Cristobal Way,38.3351866,-122.6868726,55583
58500,East Cotati Ave. & Lancaster Dr.,38.33040071,-122.6954836,55583
50900,East Cotati Ave. & La Salle Ave.,38.32862395,-122.6991816,55583
44700,East Cotati Ave. & La Salle St.,38.32873313,-122.6994569,55583
56500,East Cotati Ave. & Petaluma Hill Rd.,38.3362539,-122.6687535,55583
58400,East Cotati Ave. & Ryan Lane,38.3314364214,-122.6929338452,55583
62610,East Cotati Ave. & Santero Way,38.331753067,-122.6917450277,55583
56700,East Cotati Ave. & Sequoia Way,38.33624372,-122.6754723,55583
62900,East Cotati Ave. & Snyder/Maurice,38.33599767,-122.6839518,55583
56800,East Cotati Ave. & Snyder/Roman,38.336248,-122.6822277,55583
58300,East Cotati Ave. & Sunflower Dr.,38.33267251,-122.6904413,55583
62700,East Cotati Ave. & Windmill Farms Dr.,38.33246852,-122.6903189,55583
30300,E. Broadway & MacArthur (Ac. Sonoma Vly. H.S.),38.28495944,-122.4587454,55580
62600,E. Cotati/Lancaster,38.33073356,-122.6941078,55583
29200,El Verano (Verano Ave. & Bay St.),38.30155671,-122.4876839,55580
71800,Enterprise Dr. & Hunter Dr.,38.34471544,-122.70642,55583
48600,E. Washington St. & Ellis St.,38.24353483,-122.6312198,55583
54300,E. Washington St. & Kenilworth Dr.,38.2439417889,-122.6305505633,55583
54200,E. Washington St. & Lakeville St.,38.23826169,-122.6356492,55583
48700,E. Washington St. & Vallejo,38.24072318,-122.6338275,55583
54210,E. Washington St. & Vallejo St.,38.24069902,-122.6335687,55583
82700,FAHA (inside driveway),38.3031127,-122.4806414,55580
64100,Fairfield Inn,38.38860193,-122.8145178,55578
73740,Fairway/ Country Club,38.36626523,-122.697851,55583
73750,Fairway Dr. & Holly Ave.,38.37160252,-122.6962735,55583
73730,Fairway & Flores,38.36543687,-122.7047319,55583
32200,Fiesta Plaza,38.30843555,-122.4784708,55580
30000,Fifth St. West & Andrieux St.,38.28945934,-122.4687259,55580
30100,Fifth St. West & West MacArthur,38.28661593,-122.4691378,55580
31000,Fifth St. West & West MacArthur,38.28616649,-122.4690151,55580
64210,Fircrest MHP Clubhouse,38.3915415114,-122.8130926639,55578
93300,First St. & Mason St.,38.6080522555,-122.8618555426,55584
92800,Fitch Mountain Terrace,38.6103300303,-122.8565591492,55584
94800,Fitch St. & Grant St.,38.6164215111,-122.8673203704,55584
96700,Foothill Blvd. & Elbridge Ave.,38.7847431989,-123.0204336492,55581
89800,Foothill Regional Park,38.5602856422,-122.7979606157,55584
67500,Forestville (Downtown),38.47367409,-122.8929302,55578
19400,Forestville (Downtown),38.4735395,-122.8928919,55578
90700,Foxwood Dr.,38.552464637,-122.8112792034,55584
86300,Frates Rd. & Lakeville Circle,38.2378757,-122.590596,55583
85000,Frates Rd. & Lakeville Circle,38.23782193,-122.5909259,55583
98600,Freestone (Eastbound),38.3729335413,-122.9106488213,55585
98900,Freestone (Westbound),38.372903362,-122.9109189562,55585
01850,Fulton Rd. & Airport Blvd.,38.51028214,-122.7697278,55584
14410,Fulton Rd. & Airport Blvd.,38.51068055,-122.7700679,55584
14420,Fulton Rd. & River Rd.,38.4976679,-122.7701479,55582
01840,Fulton Rd. & River Rd.,38.49697808,-122.7699069,55582
09000,Geyserville Ave. &,38.69305168,-122.8849537,55581
08810,Geyserville Ave. (Ac. Geyserville Park & Ride),38.70718305,-122.9052674,55581
06300,Geyserville Ave. & Canyon Rd.,38.71451402,-122.9173464,55581
08600,Geyserville Ave. & Canyon Rd.,38.71433341,-122.9173075,55581
08500,Geyserville Ave. & East of Hwy. 101,38.727993,-122.939468,55581
06200,Geyserville Ave. & Geysers Ridge Rd.,38.7106872,-122.9115988,55581
08700,Geyserville Ave. & Geysers Ridge Rd.,38.71080318,-122.9120935,55581
06100,Geyserville Ave. (Geyserville Park & Ride),38.70732429,-122.9052184,55581
05810,Geyserville Ave. & Independence Ln.,38.67911269,-122.8797758,55581
09010,Geyserville Ave. & Independence Ln.,38.67912815,-122.8798852,55581
08800,Geyserville Ave. & School House Ln.,38.70820645,-122.9070055,55581
05900,Geyserville Ave. & Tzabaco Creek Rd.,38.69346736,-122.8853573,55581
06000,Geyserville Ave. & Walden St.,38.70547581,-122.9021122,55581
08900,Geyserville Ave. & Walden St.,38.70532814,-122.9022357,55581
08400,Geyserville Ave. & Zanzi Ln.,38.74198089,-122.9495214,55581
06400,Geyserville Rd. & East of Hwy. 101,38.72806979,-122.9393669,55581
06500,Geyserville Rd. & Zanzi Ln.,38.74208701,-122.9493358,55581
27100,Glen Ellen (Arnold Dr. & London Ranch Rd.),38.36137742,-122.5258869,55579
33700,Glen Ellen (Arnold Dr. & London Ranch Rd.),38.36217016,-122.5257982,55579
73500,Golf Course Dr. & Hacienda Way,38.362671,-122.693136,55583
73600,Golf Course Dr. & Halycon,38.365127,-122.691541,55583
73700,Golf Course Dr. & Hillview Ct.,38.367018,-122.688735,55583
20000,Graton,38.43732792,-122.8699724,55578
39400,Graton,38.43751134,-122.8698057,55578
20200,Graton Rd. & Hwy. 116,38.43684683,-122.858364,55578
39200,Graton Rd. & Hwy. 116,38.43700841,-122.8588402,55578
39300,Graton Rd. & Sonoma Ave.,38.43685602,-122.8622679,55578
20100,Graton Rd. & Sonoma Ave.,38.43675309,-122.8615516,55578
77700,Graton Resort (inside parking lot),38.3616404691,-122.7226258096,55583
20500,Gravenstein Hwy. & Hurlbut Ave.,38.40731686,-122.8385117,55578
20400,Gravenstein Hwy. & Mills Station Rd.,38.41304545,-122.8433789,55578
39110,Gravenstein Hwy. & Mill Station Rd.,38.41322168,-122.8432477,55578
20300,Gravenstein Hwy. & Occidental Rd.,38.42542342,-122.848404,55578
39120,Gravenstein Hwy. & Occidental Rd.,38.4258548195,-122.8481469074,55578
39600,Green Valley Rd. & Hicks Rd.,38.44560393,-122.8677273,55578
19800,Green Valley Rd. & Hwy. 116/Hicks Rd.,38.44576348,-122.8673598,55578
29300,Grove St. & Bay St.,38.29954296,-122.4864877,55580
05320,Grove St. & Chaquita Rd.,38.63316713,-122.8766603,55584
93800,Grove St. & Dry Creek Rd.,38.6258043766,-122.8756439228,55584
93700,Grove Street & W. Grant St.,38.6163442313,-122.8755523129,55584
68910,Guerneville (B of A),38.5020344,-122.9998986,55585
69000,Guerneville (Gasco),38.50202851,-123.0007925,55585
17900,Guerneville Safeway,38.50182822,-123.0005581,55585
18010,Guernewood Rd. & Neeley Rd.,38.4988937847,-123.0021547329,55585
27700,Hanna Boys Center,38.32080998,-122.5023471,55580
33100,Hanna Boys Center,38.32076843,-122.5021438,55580
05700,Healdsburg Ave. & Alexander Valley Rd.,38.65064361,-122.8692471,55584
09200,Healdsburg Ave. & Alexander Vly Rd.,38.64983759,-122.8691078,55584
05300,Healdsburg Ave. & Dry Creek Rd.,38.62354419,-122.8725411,55584
09600,Healdsburg Ave. & Dry Creek Rd.,38.62504465,-122.8728117,55584
04900,Healdsburg Ave. & Exchange Way,38.60561888,-122.8687294,55584
05500,Healdsburg Ave. & Foss Creek (driveway),38.63323783,-122.8733428,55584
09400,Healdsburg Ave. & Grove St.,38.63447572,-122.8742113,55584
39100,Healdsburg Ave. & Hurlbut Ave.,38.40735362,-122.8382132,55578
09100,Healdsburg Ave. & Lytton Springs Rd.,38.658852,-122.8717621,55584
09800,Healdsburg Ave. & Matheson,38.60955874,-122.8703934,55584
09900,Healdsburg Ave. & Mill St.,38.60736069,-122.8696934,55584
05000,Healdsburg Ave. & Mill St.,38.60757937,-122.8694918,55584
39000,Healdsburg Ave. & Murphy Ave.,38.40543351,-122.8332196,55578
20600,Healdsburg Ave. & Murphy Ave.,38.40523618,-122.8325923,55578
38900,Healdsburg Ave. & N. Main St.,38.40536057,-122.8277428,55578
20700,Healdsburg Ave. & N. Main St. (Safeway),38.40517849,-122.8269352,55578
05600,Healdsburg Ave. & Parkland Farms Dr.,38.63837884,-122.873838,55584
09300,Healdsburg Ave. & Parkland Farms Dr.,38.63881782,-122.8739747,55584
05200,Healdsburg Ave. & Powell Ave.,38.62110029,-122.8723508,55584
09700,Healdsburg Ave. & Sherman St.,38.61864331,-122.8720327,55584
09500,Healdsburg Ave. & Sunnyvale Dr.,38.62845329,-122.872767,55584
16500,Healdsburg Ave. & Tenth St.,38.44366408,-122.717923,55582
05400,Healdsburg Ave. & Terrace,38.62766601,-122.8725195,55584
05100,Healdsburg Plaza,38.61068829,-122.870491,55584
89400,Hembree Ln. & Bay Tree Ct.,38.5487594785,-122.7979716932,55584
12010,Hembree Ln. & Broad Oak Way,38.53920919,-122.7981025,55584
02560,Hembree Ln. & Broad Oak Way,38.53898988,-122.7979351,55584
02550,Hembree Ln. & Cornell St.,38.5361635,-122.7978742,55584
12020,Hembree Ln. & Dove Ln.,38.536034,-122.798073,55584
89200,Hembree Ln. & (driveway),38.5438545261,-122.7981993686,55584
89700,Hembree Ln. & Foothill Dr.,38.5581254014,-122.7979329179,55584
89300,Hembree Ln. & Leaf Haven Ln.,38.5458569361,-122.797855764,55584
89100,Hembree Ln. & Old Redwood Hwy.,38.5429659926,-122.7978690485,55584
89500,Hembree Ln. & Pepper Tree Dr.,38.5512575708,-122.7979813212,55584
89600,Hembree Ln. & Vinecrest Rd.,38.5552066301,-122.7979785328,55584
02540,Hembree Ln. & Wilson Ln.,38.53313588,-122.7962341,55584
84700,Hermosa Pkwy./ Watmaugh,38.26009485,-122.4866495,55580
92900,Heron Dr. & Hummingbird  Ct.,38.610738647,-122.8546258283,55584
73760,Holly Ave. & Hawthorne Circle,38.37148141,-122.6936598,55583
73770,Holly Ave. & Hillview Way,38.37059772,-122.6903737,55583
74010,Houser St. & Redwood Dr.,38.339079,-122.71389,55583
70000,Hunter Dr. & Senior Center,38.34551126,-122.7089704,55583
63800,Hwy. 116,38.37764377,-122.7957035,55578
61400,Hwy. 116 & Alder Ave.,38.3322,-122.720733,55583
74200,Hwy. 116 & Alder Ave.,38.33243437,-122.7213076,55583
17410,Hwy. 116 and Bohemian Hwy.,38.4678683943,-123.0106544495,55585
60110,Hwy. 116 and Hutchins Ave.,38.3932625783,-122.8184029607,55578
39800,Hwy. 116 & Appian Way,38.45858978,-122.8742225,55578
19600,Hwy. 116 & Appian Way,38.45793736,-122.8737267,55578
63900,Hwy. 116 & Bloomfield Rd.,38.38121974,-122.8057686,55578
60500,Hwy. 116 & Bloomfield Rd.,38.38100554,-122.805693,55578
17360,Hwy. 116 & Cazadero Hwy.,38.46695085,-123.0509308,55585
60600,Hwy. 116 & Cooper Rd.,38.37920468,-122.7989856,55578
61100,Hwy. 116 & Daywalt Rd. (N xing 116),38.35895541,-122.7714949,55578
63300,Hwy. 116 & Daywalt Rd. (N xing 116),38.35912251,-122.7713102,55578
19500,Hwy. 116 & Fallen Apple Ln.,38.46586206,-122.8819268,55578
60200,Hwy. 116 & Fircrest Ave.,38.3908633,-122.816698,55578
64200,Hwy. 116 & Fircrest Ave.,38.39100179,-122.8165687,55578
60700,Hwy. 116 & Fredricks Rd.,38.37415647,-122.791295,55578
17390,Hwy. 116 & Front St.,38.46967229,-123.014148,55585
17800,Hwy. 116 (Guerneville Park & Ride),38.50185113,-123.0027351,55585
69100,Hwy. 116 (Guerneville Park & Ride),38.50204813,-123.0030418,55585
39700,Hwy. 116 & Guerneville Rd.,38.45263229,-122.8683234,55578
19700,Hwy. 116 & Guerneville Rd.,38.45137218,-122.8681371,55578
61210,Hwy. 116 & Hessel & Blank Rd.,38.34346924,-122.7574062,55578
63400,Hwy. 116 & Hessel Rd.,38.36347877,-122.7793004,55578
61000,Hwy. 116 & Hessel Rd.,38.36340461,-122.7794375,55578
64300,Hwy. 116 & Hutchins Ave.,38.39302891,-122.818031,55578
64000,Hwy. 116 & Industrial Ave.,38.38374465,-122.8107886,55578
17370,Hwy. 116 & Laurel Dell Ave.,38.46668715,-123.0411087,55585
63500,Hwy. 116 & Lone Pine Rd.,38.36500561,-122.7809461,55578
60900,Hwy. 116 & Lone Pine Rd.,38.36484362,-122.7809687,55578
69200,Hwy. 116 & Lovers/Guernewood Ln.,38.49532542,-123.0086669,55585
60300,Hwy. 116 & Lynch Rd.,38.38858716,-122.8148809,55578
17700,Hwy. 116 & Old Cazadero Rd.,38.49526664,-123.0083638,55585
63700,Hwy. 116 & Old Gravenstein Hwy.,38.37562743,-122.7929182,55578
68800,Hwy. 116 & Old River Rd.,38.50446796,-122.9927013,55585
61500,Hwy. 116 & Redwood Dr.,38.33161793,-122.7164093,55583
17500,Hwy. 116 & Ridgecrest Dr.,38.47761809,-122.9983688,55585
69400,Hwy. 116 & Ridgecrest Dr.,38.47780821,-122.9984552,55585
17600,Hwy. 116 & Riverside Dr.,38.49266947,-123.0145537,55585
69300,Hwy. 116 & Riverside Dr.,38.49236103,-123.0152016,55585
64310,Hwy. 116 & Southpoint Ave.,38.39447167,-122.8187896,55578
60400,Hwy. 116 & Sparkes Rd.,38.38432003,-122.8121596,55578
61300,Hwy. 116 & Stony Point Rd.,38.33436221,-122.7373297,55583
63100,Hwy. 116 & Stony Point Rd.,38.3347597951,-122.7393544895,55583
39900,Hwy. 116 & Templeman Rd.,38.46347716,-122.8792265,55578
63600,Hwy. 116 & Todd Rd.,38.36997547,-122.7850067,55578
60800,Hwy. 116 & Todd Rd. & Old Grvnstn. Hwy.,38.36787066,-122.7832729,55578
17380,Hwy. 116 & west of Duncan Rd.,38.4773201,-123.0257457,55585
61200,Hwy. 116 & Woodworth Rd.,38.34848627,-122.762207,55578
63200,Hwy. 116 & Woodworth Rd.,38.34937647,-122.7627897,55578
31400,Hwy. 12,38.29365842,-122.4749051,55580
82900,Hwy. 12 & 3rd St. West,38.2924891,-122.4643189,55580
81600,Hwy. 12 & 3rd St. West,38.29267605,-122.4649737,55580
31300,Hwy. 12 & 7th St. West,38.29342576,-122.4724949,55580
29800,Hwy. 12 & 7th St. West,38.29324336,-122.4723624,55580
24400,Hwy. 12 & Acacia Ln.,38.46231943,-122.6687212,55582
26410,Hwy. 12 & Adobe Canyon Rd.,38.42407946,-122.5561406,55579
34310,Hwy. 12 & Adobe Canyon Rd.,38.42386501,-122.555625,55579
32500,Hwy. 12 & Balsam Ave.,38.316833,-122.4835321,55580
35900,Hwy. 12 & Boas Dr.,38.46518097,-122.6583649,55582
24700,Hwy. 12 & Boas Dr.,38.46489233,-122.6572843,55582
36200,Hwy. 12 & Cardinal Way,38.46099626,-122.671099,55582
32010,Hwy. 12 & Donald St.,38.30491479,-122.4773573,55580
28700,Hwy. 12 & Encinas,38.30591416,-122.4778783,55580
32100,Hwy. 12 & Encinas,38.30613486,-122.4777293,55580
35600,Hwy. 12 & Fairway Dr.,38.45942202,-122.6371377,55579
25100,Hwy. 12 & Fairway Dr.,38.45919086,-122.6373326,55579
28400,Hwy. 12 & Hawthorne Ave.,38.31142427,-122.4803481,55580
36000,Hwy. 12 & Jack London Dr.,38.46473019,-122.6615931,55582
26700,Hwy. 12 & Kunde Ranch Rd.,38.41078732,-122.544071,55579
34200,Hwy. 12 & Laurel Ave.,38.41568853,-122.5474559,55579
26600,Hwy. 12 & Laurel Ave.,38.41519905,-122.5472205,55579
26400,Hwy. 12 & Lawndale Dr.,38.42939125,-122.5640423,55579
34400,Hwy. 12 & Lawndale Rd.,38.42990814,-122.5647455,55579
34100,Hwy. 12 & Libby Ave.,38.41193128,-122.5444157,55579
28200,Hwy. 12 & Lichtenberg Ave.,38.31690443,-122.483751,55580
38500,Hwy. 12 & Llano Rd.,38.41233655,-122.7940713,55578
21000,Hwy. 12 & Llano Rd.,38.41201252,-122.7941031,55578
25200,Hwy. 12 & Los Alamos,38.45792645,-122.633575,55579
35500,Hwy. 12 & Los Alamos,38.45839514,-122.6347013,55579
26910,Hwy. 12 & Madrone Rd.,38.34334414,-122.4974969,55579
32710,Hwy. 12 & Madrone Rd.,38.34458873,-122.4981799,55579
24600,Hwy. 12 & Maria Ln.,38.46472612,-122.6604336,55582
28000,Hwy. 12 & Marin Ave.,38.32389548,-122.4877528,55580
32700,Hwy. 12 & Marin Ave.,38.3242864,-122.4876958,55580
24900,Hwy. 12 & Melita Rd.,38.46463355,-122.6510306,55582
35300,Hwy. 12 & Melita Rd. (East End),38.45375867,-122.6230268,55579
25400,Hwy. 12 & Melita Rd. (East End),38.45351777,-122.6229557,55579
35400,Hwy. 12 & Melita Rd. (West End),38.45615899,-122.628185,55579
25300,Hwy. 12 & Melita Rd. (West End),38.45558113,-122.627412,55579
21100,Hwy. 12 & Merced Ave.,38.42110356,-122.7785138,55578
38400,Hwy. 12 & Merced Rd.,38.42114279,-122.7788678,55578
36100,Hwy. 12 & Middle Rincon Rd.,38.4640752,-122.6644193,55582
24500,Hwy. 12 & Middle Rincon Rd.,38.46358896,-122.6654464,55582
32600,Hwy. 12 & Mountain Ave.,38.31973723,-122.4857874,55580
28100,Hwy. 12 & Mountain Ave.,38.31962053,-122.4859386,55580
25000,Hwy. 12 & Mountain Hawk,38.46193293,-122.6425189,55579
35700,Hwy. 12 & Mountain Hawk,38.46269441,-122.6436854,55579
26800,Hwy. 12 & Nuns Canyon Rd.,38.38835615,-122.5224866,55579
34000,Hwy. 12 & Nuns Canyon Rd.,38.38891191,-122.5231929,55579
25410,Hwy. 12 & Oakmont Dr.,38.44490605,-122.6046172,55579
35210,Hwy. 12 & Oakmont Dr.,38.4457331,-122.6058789,55579
26320,Hwy. 12 & Pythian Rd.,38.43587432,-122.5794859,55579
34410,Hwy. 12 & Pythian Rd.,38.43634794,-122.5800496,55579
31420,Hwy. 12 & Ramon St.,38.2987839,-122.475068,55580
29700,Hwy. 12 & Riverside Dr.,38.29347439,-122.4745729,55580
28600,Hwy. 12 & Siesta Way,38.30825843,-122.478682,55580
33900,Hwy. 12 & Sylvia Dr.,38.38325604,-122.5166252,55579
32300,Hwy. 12 & Thompson Ave.,38.31013188,-122.4794077,55580
26900,Hwy. 12 & Trinity Rd.,38.37931743,-122.5144505,55579
28800,Hwy. 12 & Verano Ave.,38.30319307,-122.4767272,55580
32000,Hwy. 12 & Verano Ave.,38.30315661,-122.4763818,55580
31410,Hwy. 12 & West Spain St.,38.29515861,-122.4755738,55580
28820,Hwy. 12 & West Spain St.,38.29424992,-122.4759461,55580
21010,Irwin Ln. & Hwy. 12,38.41793759,-122.7894844,55578
76800,Irwin Ln. & Hwy. 12,38.41797344,-122.7895855,55578
76700,Irwin Ln. & Occidental Rd.,38.42294861,-122.7880759,55578
21020,Irwin Ln. & Occidental Rd.,38.42283706,-122.7879079,55578
95800,Jefferson St. & School St.,38.8093802289,-123.0242082305,55581
96000,Jefferson St. & W. First St.,38.8039623296,-123.0204765646,55581
95900,Jefferson St. & W. Fourth St.,38.8070685174,-123.0226078512,55581
97700,Jenner,38.4494169538,-123.1149881667,55585
13480,Joe Rodota Way & Old Redwood Hwy.,38.54971299,-122.8150705,55584
91800,Johnson St. & Bell Rd.,38.5464958097,-122.8134593287,55584
51920,Kaiser Medical Center,38.35484583,-122.7079276,55583
01050,Kaiser Stop / Bicentennial Ave,38.47034051,-122.7257001,55582
15750,Kaiser Stop / Bicentennial Ave.,38.47010018,-122.724888,55582
20710,Keating Ave. & Pitt Ave.,38.40386046,-122.8271125,55578
34300,Kenwood (Hwy. 12 & Greene St.),38.42035131,-122.5521401,55579
26500,Kenwood (Hwy. 12 & Greene St.),38.42035755,-122.5523973,55579
07410,Kings Circle & E. Third St.,38.8102707954,-123.0156434404,55581
42830,LaBath Ave. & Carlson Ct,38.3502491,-122.7212875,55583
72010,LaBath Ave. & RP Expressway,38.35062167,-122.7211343,55583
42820,Labath & Martin,38.35527369,-122.7224293,55583
72020,Labath & Martin,38.35542992,-122.7222666,55583
72320,Laguna Dr. & LaBath Ave.,38.345528,-122.719175,55583
38700,Laguna Park Way & Morris St.,38.40520772,-122.8204207,55578
64520,Laguna Park Way & Morris St.,38.40513006,-122.8200281,55578
64510,Laguna Park Way & Sebastopol Transit Hub,38.40438795,-122.8230619,55578
38800,Laguna Park Way & Sebastopol Transit Hub,38.40412271,-122.8236151,55578
85900,Lakeville Hwy. & Baywood Dr.,38.23276528,-122.6152987,55583
85500,Lakeville Hwy. & Baywood Dr.,38.23314703,-122.6134885,55583
86100,Lakeville Hwy. & Casa Grande Rd.,38.23354159,-122.603953,55583
85300,Lakeville Hwy. & Casa Grande Rd.,38.23389969,-122.6036133,55583
85100,Lakeville Hwy. & Frates Rd.,38.23471552,-122.5945552,55583
86000,Lakeville Hwy. & Marina,38.23307839,-122.6099946,55583
85400,Lakeville Hwy. & Marina Ave.,38.23336161,-122.6100011,55583
85200,Lakeville Hwy. & S. McDowell Blvd.,38.2342772,-122.5996816,55583
86200,Lakeville Hwy. & S. McDowell Blvd.,38.23400178,-122.5994623,55583
85800,Lakeville St. & Caufield,38.23519425,-122.6219756,55583
85700,Lakeville St. & Caufield,38.23546956,-122.6232076,55583
85600,Lakeville St. & SB Hwy. 101 on-ramp,38.23417966,-122.6192798,55583
70600,Lancaster & Liman Way,38.32634116,-122.6915191,55583
70700,Lancaster & Lincoln Ave.,38.32864258,-122.6944695,55583
70500,Lancaster & Lords Manor Way,38.32469699,-122.6905845,55583
70400,Lancaster/Myrtle,38.32205842,-122.6894212,55583
15000,Larkfield Shopping Center,38.50101805,-122.7517331,55582
01910,Larkfield Shopping Center,38.50125011,-122.7515788,55582
74800,Lawrence Jones Middle School,38.35253656,-122.6857821,55583
57200,Lawrence Jones Middle School,38.35167895,-122.6854621,55583
30730,Leveroni Rd. & Fryer Creek Dr.,38.27643114,-122.4654306,55580
86710,Leveroni Rd. & Palmer Ave.,38.27619408,-122.4648714,55580
90910,Los Amigos & Cordelia Ln.,38.5555678756,-122.8165577352,55584
90600,Los Amigos Rd. & Foxwood Dr.,38.5502759591,-122.8107930853,55584
91000,Los Amigos Rd. & Tabatha Way,38.5571219755,-122.818033724,55584
90900,Los Amigos Rd. & Valley Oak Ct.,38.5541731388,-122.8152154863,55584
90800,Los Amigos Ro. & Lazy Creek Dr.,38.5525984309,-122.8135303928,55584
26310,Los Guilicos,38.44005808,-122.5806225,55579
20880,"Lucky's",38.40770957,-122.8399498,55578
05800,Lytton Springs Rd. & Geyserville Ave.,38.65939271,-122.8724128,55584
17300,Main St. & Moscow Rd.,38.46412774,-123.0104746,55585
69700,Main St. & Starett Hill Rd.,38.464208,-123.0106893,55585
62750,Manchester & Magnolia,38.32858921,-122.6797018,55583
94300,March Ave. & Healdsburg Ave.,38.6261601152,-122.8720400408,55584
01810,Mark West Springs Rd. & Old Redwood Hwy.,38.49658245,-122.7503067,55582
14450,Mark West Springs Rd. & Old Redwood Hwy.,38.496407,-122.750122,55582
28810,Maxwell Village on Hwy. 12,38.29911987,-122.4753365,55580
81800,Maxwell Village Shopping Center (inside),38.2996411,-122.4766137,55580
92000,McClelland Dr. & Duvander Ln.,38.5482629974,-122.8161050765,55584
91900,McClelland Dr. & Honsa Ave.,38.5483181172,-122.8145395341,55584
47600,McDowell Blvd. & Clegg St.,38.26900206,-122.6602084,55583
47700,McDowell Blvd. & Corona Rd.,38.26729842,-122.6582232,55583
47800,McDowell Blvd. & Corona Rd.,38.26535263,-122.6547387,55583
48200,McDowell Blvd. & Dynamic St.,38.25817813,-122.6419926,55583
48510,McDowell Blvd. & E. Washington St.,38.24970263,-122.6269924,55583
48400,McDowell Blvd. & Lynch Creek Way,38.25320418,-122.6331855,55583
47400,McDowell Blvd. & Old Redwood Hwy.,38.27341725,-122.6656986,55583
48300,McDowell Blvd. & Rainer Ave.,38.2557198,-122.6376979,55583
47500,McDowell Blvd. & Scott St.,38.272242023,-122.6637211818,55583
48000,McDowell Blvd. & Southpoint,38.26093456,-122.6469814,55583
48100,McDowell Blvd. & Sunrise Parkway,38.25937467,-122.6441636,55583
23700,Memorial Hospital,38.44302404,-122.7004943,55582
36900,Memorial Hospital,38.44305655,-122.7010683,55582
16400,Mendocino Ave. & Benton,38.44802358,-122.7177412,55582
00500,Mendocino Ave. & Benton St.,38.44770463,-122.7174964,55582
15610,Mendocino Ave. & Bicentennial Way,38.47245321,-122.7257566,55582
01200,Mendocino Ave. & Bicentennial Way,38.4710363,-122.7233788,55582
15800,Mendocino Ave./ Bicentennial Way,38.46937261,-122.7222384,55582
15900,Mendocino Ave. & Chanate Rd.,38.46465344,-122.7193304,55582
01100,Mendocino Ave. & Chanate Rd.,38.46559823,-122.7195326,55582
00300,Mendocino Ave. & Cherry St.,38.44453,-122.716873,55582
16100,Mendocino Ave. & Clement Ave.,38.45925799,-122.7173229,55582
00400,Mendocino Ave. & College Ave.,38.446148,-122.71756,55582
00800,Mendocino Ave. & Dexter St.,38.45720892,-122.7171263,55582
01300,Mendocino Ave. & Fountain Grove Pkwy.,38.4743317488,-122.7278767873,55582
15600,Mendocino Ave. & Fountain Grove Pkwy.,38.47378954,-122.7274625,55582
00600,Mendocino Ave. & Ridgeway,38.44997874,-122.7174098,55582
16300,Mendocino Ave. & Ridgeway Ave.,38.45095525,-122.717669,55582
16000,Mendocino Ave. & Schurman Dr.,38.4628473,-122.7182234,55582
00900,Mendocino Ave. & Silva Ave.,38.45851776,-122.7170832,55582
01000,Mendocino Ave. & Steele Ln.,38.46212323,-122.717528,55582
20870,Mill Station Rd. & Hwy. 116,38.4124101,-122.8434301,55578
67700,Mirabel Rd. & Davis Rd.,38.48076899,-122.8947293,55578
19000,Mirabel Rd. Ext. & River Rd.,38.49324369,-122.8960599,55578
19200,Mirabel Rd. & Giusti Rd.,38.48098175,-122.8949012,55578
67600,Mirabel Rd. & Hwy. 116,38.47437824,-122.8947608,55578
19300,Mirabel Rd. & Hwy. 116,38.47435722,-122.8949966,55578
67800,Mirabel Rd. & Trenton Rd.,38.48972103,-122.8949689,55578
19100,Mirabel Rd. & Trenton Rd.,38.48998309,-122.8951477,55578
24300,Mission Blvd. & Hwy. 12,38.45828634,-122.6730349,55582
36300,Mission Blvd. & Hwy. 12,38.45825507,-122.6738639,55582
88300,Mitchell Ln. & 10th Hole Dr.,38.5328403664,-122.8044319428,55584
88200,Mitchell Ln. & 8th Hole Dr.,38.5327649641,-122.8093547791,55584
17200,Monte Rio (Creekside Park),38.4608333037,-123.0118469834,55585
69500,Monte Rio & Hwy. 116,38.46778253,-123.0110265,55585
36500,Montgomery Dr. & Jacqueline,38.45201926,-122.6754025,55582
24100,Montgomery Dr. & Jacqueline,38.45220904,-122.6747247,55582
36800,Montgomery Dr. & Shortt Rd.,38.44567189,-122.6915052,55582
23800,Montgomery Dr. & Shortt Rd.,38.44542542,-122.6917853,55582
36400,Montgomery Dr. & Summerfield Dr.,38.45454668,-122.6724547,55582
24200,Montgomery Dr. & Summerfield Dr.,38.45429074,-122.672257,55582
24000,Montgomery Dr. & Yulupa Ave.,38.44952402,-122.6789718,55582
36600,Montgomery Dr. & Yulupa Ave.,38.44936432,-122.6795069,55582
36700,Montgomery Village,38.44722429,-122.6858981,55582
23900,Montgomery Village,38.44673427,-122.6868985,55582
65400,Moorland Ave. & Bellevue Ave.,38.4008598006,-122.7184747707,55582
66100,Moorland Ave. & Bellevue Ave.,38.40087418,-122.7186316,55582
65100,Moorland Ave. & btwn. Todd/W. Robles,38.391327,-122.7184342,55582
66400,Moorland Ave. & btwn. W. Robles/Todd,38.39213027,-122.7185054,55582
65300,Moorland Ave. & Gio Dr.,38.39846152,-122.7184614,55582
66200,Moorland Ave. & Thistle Ln.,38.39883714,-122.7186205,55582
65000,Moorland Ave. & Todd Rd.,38.38782416,-122.7185116,55582
66500,Moorland Ave. & Todd Rd.,38.38774971,-122.7186006,55582
65200,Moorland Ave. & West Robles Ave.,38.39438405,-122.7184786,55582
66300,Moorland Ave. & West Robles Ave.,38.39455905,-122.7186306,55582
38600,Morris St. & Hwy. 12,38.40359583,-122.8191429,55578
20900,Morris St. & Hwy. 12,38.4038814138,-122.8193992745,55578
17330,Moscow Rd. & Casini Ranch,38.46028036,-123.0453249,55585
99300,Moscow Rd. & Casini Ranch,38.4602232586,-123.0449767043,55585
69600,Moscow Rd. & Main St.,38.46488131,-123.0107238,55585
99600,Moscow Rd. & Main St.,38.4646059177,-123.0105785732,55585
99500,Moscow Rd. & Russian River Ave.,38.4737335853,-123.0217095343,55585
99400,Moscow Rd. & West St.,38.4729395946,-123.0247554359,55585
17320,Moscow Rd. & West St.,38.47298178,-123.0248064,55585
70300,Myrtle Ave. & Hahn,38.32155322,-122.6928668,55583
70100,Myrtle Ave. & Macklin Dr.,38.3214074,-122.7013407,55583
70200,Myrtle Ave. & Veronda Way,38.32151504,-122.6975935,55583
18050,Neeley Rd. & Hwy. 116,38.4983537704,-122.9936005348,55585
13700,N. Laughlin Rd. & Copperhill Parkway,38.50902884,-122.8003805,55584
13130,N. Laughlin Rd. & Copperhill Parkway,38.50908955,-122.8001925,55584
55400,N. McDowell Blvd. & Clegg St.,38.26937392,-122.6602573,55583
55200,N. McDowell Blvd. & Corona Rd.,38.26542516,-122.6544285,55583
54800,N. McDowell Blvd. & Dynamic St.,38.25804034,-122.6413586,55583
54400,N. McDowell Blvd. (Lucchesi Park),38.2523146,-122.6311875,55583
54500,N. McDowell Blvd. & Lynch Creek Way,38.25338689,-122.6330373,55583
55600,N. McDowell Blvd. & Old Redwood Hwy.,38.27399231,-122.6662042,55583
48500,N. McDowell Blvd. (Petaluma Plaza),38.25147329,-122.6301351,55583
54700,N. McDowell Blvd. & Rainer Ave.,38.25653481,-122.6386881,55583
54600,N. McDowell Blvd. & Rainer Ave.,38.25566879,-122.637162,55583
55300,N. McDowell Blvd. & Rand St.,38.26777574,-122.6585469,55583
55500,N. McDowell Blvd. & Scott St.,38.2725157454,-122.6637136744,55583
55000,N. McDowell Blvd. & Southpoint,38.26170508,-122.6477803,55583
54900,N. McDowell Blvd. & Sunrise Parkway,38.25964185,-122.6441673,55583
95300,North Main St. & Fourth St.,38.8085350737,-123.0178231563,55581
20720,North Main St. & Wilton Ave.,38.403637,-122.825272,55578
94600,N. University St. & Monte Vista Ave.,38.6239653229,-122.8638259863,55584
35000,Oakmont Dr. & Deerfield Circle,38.43490589,-122.5968417,55579
25700,Oakmont Dr. & Hillsdale Dr.,38.43712803,-122.5994973,55579
35100,Oakmont Dr. & Hillsdale Dr.,38.43774846,-122.5994435,55579
25600,Oakmont Dr. & Laurel Leaf Pl.,38.43987843,-122.6033053,55579
25800,Oakmont Dr. & RidgeGreen Dr.,38.43516372,-122.5981164,55579
25500,Oakmont Dr. & White Oak,38.44156298,-122.6050402,55579
35200,Oakmont Dr. & White Oak,38.44126442,-122.6043073,55579
34900,Oakmont Golf Course,38.43222382,-122.5930211,55579
17000,Occidental (Bohemian Hwy. & Hill St.),38.40962859,-122.9486721,55585
01400,Old Redwood Hwy. &,38.47935233,-122.7326428,55582
04400,Old Redwood Hwy. &,38.56633599,-122.8312631,55584
50200,Old Redwood Hwy. & Adobe Rd.,38.30331586,-122.681021,55583
50100,Old Redwood Hwy. & Adobe Rd.,38.29986755,-122.6739944,55583
02200,Old Redwood Hwy. & Airport Blvd,38.51180039,-122.7641909,55584
14600,Old Redwood Hwy. & Airport Blvd,38.51063803,-122.7630671,55584
12600,Old Redwood Hwy. & Airport Blvd,38.51273422,-122.7657755,55584
11400,Old Redwood Hwy. & Alden Ln.,38.54313685,-122.8001706,55584
03200,Old Redwood Hwy. & Alden Ln.,38.54340506,-122.8000289,55584
11920,Old Redwood Hwy. & Anna Dr.,38.530375,-122.782642,55584
14900,Old Redwood Hwy. & Ascot,38.50312948,-122.757188,55584
02000,Old Redwood Hwy. & Ascot Dr.,38.50331782,-122.7571013,55584
11900,Old Redwood Hwy. & Billington Ln.,38.53530859,-122.7882376,55584
10100,Old Redwood Hwy. & Btwn. Eastside/Limerick,38.5827618,-122.8461949,55584
04700,Old Redwood Hwy. & Btwn. Eastside/Limerick,38.5828075,-122.8460282,55584
01600,Old Redwood Hwy. & Cardinal Newman HS,38.49145401,-122.7410319,55582
15400,Old Redwood Hwy. & Cardinal Newman HS,38.49092684,-122.740733,55582
15300,Old Redwood Hwy. & Chelsea Dr.,38.49344113,-122.7439234,55582
01800,Old Redwood Hwy. & Chelsea Drive,38.4953885578,-122.7460411191,55582
12400,Old Redwood Hwy. & Colonial Park Dr.,38.5188485725,-122.7732300164,55584
62400,Old Redwood Hwy. & Commerce Blvd.,38.33175672,-122.7112888,55583
11910,Old Redwood Hwy. & Deanna Pl.,38.53269295,-122.7851346,55584
02010,Old Redwood Hwy. & Deerwood Dr.,38.50551709,-122.7587711,55584
14800,Old Redwood Hwy. & Deerwood Dr.,38.50543389,-122.7590062,55584
12500,Old Redwood Hwy. & Donna Drive/Fulton Rd.,38.51667376,-122.7706368,55584
50500,Old Redwood Hwy. & East Railroad Ave.,38.31470927,-122.6946934,55583
04500,Old Redwood Hwy. & Eastside Rd.,38.57451945,-122.84165,55584
04600,Old Redwood Hwy. & Eastside Rd.,38.57778632,-122.8431234,55584
10300,Old Redwood Hwy. & Eastside Rd.,38.57460008,-122.8419131,55584
10200,Old Redwood Hwy. & Eastside Rd.,38.57782174,-122.8433622,55584
49800,Old Redwood Hwy. & Ely Rd.,38.28435374,-122.6672606,55583
02100,Old Redwood Hwy. & Faught Rd.,38.50878194,-122.7598039,55584
14700,Old Redwood Hwy. & Faught Rd.,38.50853376,-122.7599479,55584
50400,Old Redwood Hwy. & Fern Ave.,38.30971175,-122.6903806,55583
45200,Old Redwood Hwy. & Fern Avenue/Highland,38.30975919,-122.6906597,55583
02300,Old Redwood Hwy. & Fulton Rd.,38.51566174,-122.7692227,55584
50820,Old Redwood Hwy. & George St.,38.32875685,-122.708137,55583
91400,Old Redwood Hwy. & Godfrey Dr.,38.5540346677,-122.8177997038,55584
45800,Old Redwood Hwy. & Goodwin Ave.,38.28354879,-122.6676657,55583
45700,Old Redwood Hwy. & Hatchery Rd.,38.28963909,-122.6665872,55583
49900,Old Redwood Hwy. & Hatchery Rd.,38.29000293,-122.6663126,55583
03100,Old Redwood Hwy. & Hembree Ln.,38.54186574,-122.7972778,55584
11500,Old Redwood Hwy. & Hembree Ln.,38.5414302107,-122.7968165583,55584
01500,Old Redwood Hwy. (Kaiser Stein Bldg.),38.48272423,-122.7344032,55582
15500,Old Redwood Hwy. (Kaiser Stein Bldg.),38.48283847,-122.7346954,55582
12000,Old Redwood Hwy. & Kendall Way,38.527706,-122.780775,55584
11300,Old Redwood Hwy. & Lakewood Dr.,38.54596715,-122.8060887,55584
03300,Old Redwood Hwy. & Lakewood Dr.,38.54625232,-122.8061443,55584
01700,Old Redwood Hwy. & La Mancha Apartments,38.49373114,-122.7439674,55582
50810,Old Redwood Hwy. & La Plaza,38.32710469,-122.7066699,55583
15100,Old Redwood Hwy. & Larkfield Maples Ct.,38.49924528,-122.749655,55582
04800,Old Redwood Hwy. & Limerick Ln.,38.5886666,-122.8494604,55584
10000,Old Redwood Hwy. & Limerick Ln.,38.58809557,-122.8493676,55584
91600,Old Redwood Hwy. & Market St.,38.5493171444,-122.8131974073,55584
15200,Old Redwood Hwy. & Mark West Springs Rd.,38.49587144,-122.746945,55582
01900,Old Redwood Hwy. & Mark West Springs Rd.,38.4988560367,-122.7491226515,55582
49700,Old Redwood Hwy. & McDowell Blvd.,38.27630122,-122.6689325,55583
45900,Old Redwood Hwy. & McDowell/Redwood Way,38.27722178,-122.669082,55583
91200,Old Redwood Hwy. & Miller Ln.,38.5588570249,-122.8216374225,55584
45300,Old Redwood Hwy. & Minnesota Ave.,38.30641002,-122.686891,55583
50300,Old Redwood Hwy. & Minnesota Ave.,38.30719898,-122.6877487,55583
50700,Old Redwood Hwy. & Page Ave.,38.3239580121,-122.7039613196,55583
44900,Old Redwood Hwy. & Page St.,38.32430876,-122.7044383,55583
45400,Old Redwood Hwy. & Penngrove Ave.,38.30307132,-122.6810598,55583
45500,Old Redwood Hwy. & Penngrove Ave.,38.30046413,-122.6758683,55583
50000,Old Redwood Hwy. & Petaluma Hill Rd.,38.29459138,-122.6668434,55583
45600,Old Redwood Hwy. & Petaluma Hill Rd.,38.29430211,-122.6670066,55583
11600,Old Redwood Hwy. & Pleasant Ave.,38.54025006,-122.7942947,55584
03000,Old Redwood Hwy. & Pleasant Ave.,38.54029979,-122.7937979,55584
02400,Old Redwood Hwy. & Plymouth Way,38.52004655,-122.7740887,55584
12300,Old Redwood Hwy. & Plymouth Way,38.5200498922,-122.7743028102,55584
91300,Old Redwood Hwy. & Rio Ruso Dr.,38.5572387865,-122.8203265712,55584
02700,Old Redwood Hwy. & Savannah Way,38.53167894,-122.7837409,55584
02800,Old Redwood Hwy. & Shamrock Circle,38.53480177,-122.7873834,55584
02600,Old Redwood Hwy. & Shiloh Rd.,38.52634997,-122.7795453,55584
12200,Old Redwood Hwy. & Shiloh Rd.,38.521731,-122.775906,55584
02500,Old Redwood Hwy. & Shiloh Rd.,38.52200804,-122.7759014,55584
12100,Old Redwood Hwy. & Shiloh Rd.,38.52519074,-122.7790434,55584
11800,Old Redwood Hwy. & Shira St.,38.5377637,-122.7909856,55584
11700,Old Redwood Hwy. & Shira St.,38.53907503,-122.7924649,55584
10500,Old Redwood Hwy. & Starr Rd.,38.56420861,-122.8280399,55584
04300,Old Redwood Hwy. & Starr Rd.,38.56461423,-122.8283657,55584
50830,Old Redwood Hwy. & St. Joseph Way,38.33043601,-122.7097035,55583
02900,Old Redwood Hwy. & Thrushwing,38.53794826,-122.7908582,55584
50600,Old Redwood Hwy. & Valparaiso,38.32238485,-122.7027804,55583
45000,Old Redwood Hwy. & Valparaiso Ave.,38.32048088,-122.7016937,55583
10400,Old Redwood Hwy. & West of Hwy. 101,38.56596714,-122.8309824,55584
45100,Old Redwood Hwy. & West Railroad Ave.,38.31446418,-122.6946144,55583
62500,Old Redwood Hwy. & William Dr.,38.32848395,-122.7082086,55583
91500,Old Redwood Hwy. & Windsor Rd.,38.552422579,-122.8165654862,55584
91700,Old Redwood Hwy. & Windsor River Rd.,38.5476631704,-122.8109879292,55584
18030,Orchard Ave. & Montesano Ave.,38.4873899577,-123.012934096,55585
18040,Orchard Ave. & River Ln.,38.4896846112,-123.0137682848,55585
64400,Palm Dr. Hospital,38.39692224,-122.8201819,55578
94000,Parkland Farms,38.6377489406,-122.8730207968,55584
94100,Parkland Farms Blvd. & Arbor Way,38.6399447268,-122.8670429177,55584
64500,Petaluma Ave. & Abbott,38.40071985,-122.8221431,55578
49200,Petaluma Blvd. & Btwn. Cherry&Magnolia,38.24289931,-122.6440597,55583
49500,Petaluma Blvd. & Corona Rd.,38.26028752,-122.6611146,55583
46010,Petaluma Blvd. & Emerald Dr.,38.26236763,-122.6659093,55583
46200,Petaluma Blvd. & Gossage Ave.,38.25484665,-122.6513943,55583
49400,Petaluma Blvd. & Gossage Ave.,38.25549211,-122.6517316,55583
49110,Petaluma Blvd. & Kent St.,38.2395887308,-122.6431335257,55583
46410,Petaluma Blvd. & Kent St.,38.23979036,-122.6433605,55583
46310,Petaluma Blvd. & Magnolia Ave.,38.244208,-122.644692,55583
49100,Petaluma Blvd. & Mary (Downtown Petaluma),38.2365389,-122.6415435,55583
49510,Petaluma Blvd. & Metz Ln.,38.26448036,-122.667944,55583
49600,Petaluma Blvd. N. & Stony Pt. Rd.,38.26951289,-122.6703298,55583
46000,Petaluma Blvd. N. & Stony Pt. Rd.,38.26866632,-122.6708947,55583
49300,Petaluma Blvd. & Shasta Ave.,38.24692128,-122.6451768,55583
46300,Petaluma Blvd. & Shasta Ln.,38.24694506,-122.6454322,55583
46100,Petaluma Blvd. & Skillman Ln.,38.25965994,-122.6603096,55583
46400,Petaluma Blvd. & West St.,38.24215062,-122.644033,55583
47900,Petaluma Estates MHP,38.26406909,-122.6524885,55583
54220,Petaluma Fairgrounds Park & Ride,38.24255811,-122.6313492,55583
55800,Petaluma Hill Rd. & Adobe Rd.,38.29956043,-122.6663439,55583
47200,Petaluma Hill Rd. & Adobe Rd.,38.29960772,-122.6665129,55583
58000,Petaluma Hill Rd. & Aston Ave.,38.42426169,-122.70829,55582
40220,Petaluma Hill Rd. & Colgan Ave.,38.42307158,-122.7078588,55582
56400,Petaluma Hill Rd. & Curtis Dr.,38.33352119,-122.666654,55583
47100,Petaluma Hill Rd. & Dutch Ln.,38.30445665,-122.6665857,55583
55900,Petaluma Hill Rd. & Dutch Ln.,38.30413233,-122.6663911,55583
46600,Petaluma Hill Rd. & East Cotati Ave.,38.33516647,-122.666865,55583
56000,Petaluma Hill Rd. & East Railroad Ave.,38.30904114,-122.6664287,55583
46900,Petaluma Hill Rd. & East Railroad Ave.,38.31399225,-122.6668043,55583
47000,Petaluma Hill Rd. & East Railroad Ave.,38.30877965,-122.6665965,55583
40240,Petaluma Hill Rd. & Hunter Ln.,38.38485199,-122.6876788,55582
57800,Petaluma Hill Rd. & Hunter Ln.,38.3855537,-122.6879628,55582
40230,Petaluma Hill Rd. & Kawana Springs Rd.,38.41678964,-122.7044377,55582
57900,Petaluma Hill Rd. & Kawana Springs Rd.,38.41698222,-122.7041053,55582
47300,Petaluma Hill Rd. & Old Redwood Hwy.,38.29658017,-122.6664842,55583
56300,"Petaluma Hill Rd. & Robert's Rd.",38.32940918,-122.6666285,55583
46700,"Petaluma Hill Rd. & Robert's Rd.",38.3282859,-122.6668176,55583
56200,Petaluma Hill Rd. & Valley House Dr.,38.32085142,-122.6666625,55583
46800,Petaluma Hill Rd. & Valley House Dr.,38.32127903,-122.6669116,55583
55700,Petaluma Hill Rd. & Woodward Ave.,38.29729696,-122.6663154,55583
54100,Petaluma Transit Mall,38.236645,-122.636513,55583
56100,Petluma Hill Rd. & East Railroad Ave.,38.31459884,-122.6665737,55583
20840,Pleasant Hill Ave. & Valentine Ave.,38.40207898,-122.8397814,55578
98000,Portuguese Beach,38.3777562918,-123.0798332274,55585
94700,Powell Ave. & Fitch St.,38.6207664204,-122.8668547121,55584
94400,Prentice Ave. & March Ave.,38.6267861847,-122.8666548598,55584
34700,Pythian Rd. & Golf Ct.,38.42929266,-122.5832924,55579
34500,Pythian Rd. & Hwy. 12,38.43444386,-122.5788454,55579
26300,Pythian Rd. & Hwy. 12,38.43479869,-122.5784843,55579
34600,Pythian Rd. & Oaktrail Dr.,38.43186861,-122.5803882,55579
26200,Pythian Rd. & Oaktrail Dr.,38.43181263,-122.5802524,55579
26100,Pythian Rd. & Pythian Ct.,38.42881122,-122.5839619,55579
34800,Pythian Rd. & Valley Oaks,38.43084343,-122.5867573,55579
82400,Railroad Ave. & Boyes Blvd.,38.31139868,-122.4920783,55580
82600,Railroad Ave. & Craig Ave.,38.30650699,-122.4890656,55580
31710,Railroad Ave. & Craig Ave.,38.30589593,-122.4886073,55580
31720,Railroad Ave. & Toy Ave.,38.30932889,-122.4903282,55580
82500,Railroad Ave & Toy Ln.,38.30842079,-122.4900298,55580
22400,Railroad St. & Hazel Rd.,38.43451466,-122.7193364,55582
75500,Railroad St. & West Third St.,38.43583788,-122.7201699,55582
47950,Rainier Ave. & Acadia Dr.,38.26202381,-122.6301829,55583
54620,Rainier Ave. & Acadia Dr.,38.26200457,-122.6298689,55583
47960,Rainier Ave. & Maria Dr.,38.25872677,-122.6325735,55583
54610,Rainier Ave. & Maria Dr.,38.25826859,-122.6327059,55583
90400,"Raley's Shopping Center",38.5492273512,-122.8051478676,55584
72710,"Raley's Town Center",38.34669,-122.7054595,55583
70800,Rancho Cotate High School,38.33968746,-122.6859462,55583
73900,Rancho Feliz Mobile Home Park,38.34487961,-122.7148058,55583
72200,Rancho Verde Mobile Home Park,38.349432,-122.728745,55583
15720,Range Ave. & @ Paulin Creek,38.46322967,-122.7325171,55582
01080,Range Ave. & @ Paulin Creek,38.46269277,-122.732721,55582
15740,Range Ave. & Russel Ave.,38.46962622,-122.7324752,55582
01060,Range Ave. & Russel Ave.,38.46832138,-122.7327758,55582
01070,Range Ave. & State Farm Dr.,38.46558338,-122.7327481,55582
15730,Range Ave. & State Farm Dr.,38.46655536,-122.732523,55582
01090,Range Ave. & Steele Ln.,38.46037227,-122.7326246,55582
15710,Range Ave. & Steele Ln.,38.46076203,-122.7323834,55582
72310,Reading Cinemas (on Labath Ave.),38.346641,-122.72127,55583
42900,Redwood Dr. & Business Park Dr.,38.35440948,-122.7137076,55583
42800,Redwood Dr. & Business Park Dr.,38.3583650381,-122.7136964356,55583
42720,Redwood Dr. / Commerce Blvd.,38.3649875835,-122.7136479465,55583
42700,Redwood Dr. & Commerce Blvd.,38.3655538,-122.7135683,55583
42710,Redwood Dr. / Golf Course Dr. (Graton Resort),38.363702322,-122.7149339161,55583
51730,Redwood Dr. / Golf Course Dr. (Graton Resort),38.36258666,-122.7147756,55583
74100,Redwood Dr. & Hwy. 116,38.33173584,-122.7155296,55583
74000,Redwood Dr. & Portal,38.34150976,-122.7133656,55583
61800,Redwood Dr. & RP Expressway,38.34768745,-122.7166747,55583
43000,Redwood Dr. & RP Expressway,38.3524656,-122.7149946,55583
61700,Redwood Dr. & RP Expressway,38.345704,-122.7155439,55583
51720,Redwood Dr. & R.P. Expressway (Boathouse Sushi),38.34899059,-122.7167299,55583
43100,Redwood Dr. & R.P. Expressway (Chevron Oil Stop),38.34942966,-122.7170484,55583
18400,Rio Nido,38.51940815,-122.9778392,55585
68500,Rio Nido,38.51934255,-122.9793565,55585
18300,River Rd.,38.51350048,-122.9836682,55585
18600,River Rd.,38.50410574,-122.9405973,55585
68300,River Rd.,38.5041628,-122.9404752,55585
18000,River Rd. & Armstrong Woods Rd.,38.50196802,-122.996923,55585
68900,River Rd. & Armstrong Woods Rd.,38.50217629,-122.9968357,55585
18200,River Rd. & Bonita Ave.,38.5073407919,-122.9890269276,55585
68700,River Rd. & Bonita Ave.,38.50740281,-122.9891434,55585
68600,River Rd. & Foothill Blvd.,38.51501579,-122.9833127,55585
14430,River Rd. & Fulton Rd.,38.49634363,-122.7674106,55582
01860,River Rd. & Fulton Rd.,38.49663884,-122.7714459,55582
68100,"River Rd. & Grays Ct. (Ac. Berry's Market)",38.50918152,-122.9236538,55585
01870,River Rd. & Laughlin Rd.,38.49311072,-122.7880104,55578
67900,River Rd. & Mirabel Rd.,38.49361363,-122.8956529,55578
18500,River Rd. & Odd Fellows Park Rd.,38.51024692,-122.9664692,55585
68400,River Rd. & Odd Fellows Park Rd.,38.51027234,-122.9661932,55585
18100,River Rd. & Old River Rd.,38.5047026376,-122.9921295673,55585
18900,River Rd. & Rio Vista,38.49962306,-122.9040428,55585
18710,River Rd. & River Dr. (East),38.50925504,-122.9222597,55585
18800,River Rd. & Scenic Rd.,38.50574801,-122.913842,55585
68000,River Rd. & Scenic Rd.,38.50603184,-122.9137523,55585
19010,River Rd. & Trenton-Healdsburg Rd.,38.48802264,-122.8548663,55578
01880,River Rd. & Trenton-Healdsburg Rd.,38.48847958,-122.8553353,55578
01830,River Rd. & West of Hwy. 101,38.49650345,-122.7611762,55582
68200,River Rd. & Westside Rd.,38.50677621,-122.9303604,55585
18700,River Rd. & Westside Rd.,38.50818105,-122.9290174,55585
14440,River Rd. & W. of Hwy. 101,38.49628523,-122.760916,55582
19020,River Rd. & Woolsey Rd.,38.49322016,-122.787103,55578
93200,Rivers Bend Club House,38.6099007443,-122.8465710807,55584
93100,Riverside Club House,38.6095400275,-122.8502920728,55584
29600,Riverside Dr. & Petaluma Ave.,38.29401191,-122.4773754,55580
31500,Riverside Dr. & Petaluma Ave.,38.29473063,-122.4781539,55580
29500,Riverside Dr. & Solano Ave.,38.29673473,-122.4812125,55580
31600,Riverside Dr. & Solano Ave.,38.29658959,-122.4807293,55580
93000,Riverview Club House,38.6095221332,-122.8518218965,55584
42000,"Robert's Lake Rd. / Golf Course Dr.",38.36359305,-122.7107047,55583
52200,"Robert's Lake Rd./ Golf Course Dr.",38.36432742,-122.7106535,55583
71600,Rohnert Park Library,38.34853603,-122.7038554,55583
19900,Ross Rd. & Kamuela Rd.,38.44178284,-122.8706797,55578
39500,Ross Rd. & Kamuela Rd.,38.44192618,-122.870603,55578
72700,RP Expressway & Country Club Dr.,38.34811828,-122.7002912,55583
61900,RP Expressway & Hwy. 101,38.34818649,-122.7141267,55583
51710,RP Expressway & Hwy. 101,38.348587,-122.7118547,55583
72000,RP Expressway & LaBath,38.3491677229,-122.7219639818,55583
72100,RP Expressway & LaBath,38.349149,-122.723618,55583
72300,RP Expressway & LaBath,38.348844,-122.723836,55583
71900,RP Expressway & Redwood Dr.,38.3485255,-122.7179762,55583
72500,RP Expressway & Redwood Dr.,38.34824865,-122.7180242,55583
74910,R.P. Expressway & Snyder Ln.,38.34568132,-122.6845804,55583
01040,Russell & Ventura (Kaiser Stop),38.46920628,-122.7257582,55582
15760,Russell & Ventura (Kaiser Stop),38.46908844,-122.7244746,55582
93400,Russian River Pines Apartments,38.6049213299,-122.8613446609,55584
93500,Russian River Trailer Park,38.6040072429,-122.8625457602,55584
92500,Safeway,38.6096864785,-122.8733461661,55584
98100,Salmon Creek Beach,38.3556914549,-123.0662585569,55585
80000,San Rafael Transit Center,37.97116752,-122.5230338,55583
40300,Santa Rosa Ave. & Barham Ave.,38.42739573,-122.7132341,55582
53700,Santa Rosa Ave. & Barham Ave.,38.4275483,-122.7128235,55582
41100,Santa Rosa Ave. & Bellevue Ave.,38.40419841,-122.7136344,55582
53100,Santa Rosa Ave. & Bellevue Ave.,38.40373878,-122.7133053,55582
40900,Santa Rosa Ave. & Burt St.,38.40925313,-122.7137078,55582
52900,Santa Rosa Ave. & Butterfly Ln.,38.39664861,-122.713364,55582
53000,Santa Rosa Ave. & Castro Ct,38.39919208,-122.7133464,55582
40500,Santa Rosa Ave. & Colgan Ave.,38.42037241,-122.7137092,55582
53600,Santa Rosa Ave. & Colgan Ave.,38.42172335,-122.713345,55582
53500,Santa Rosa Ave. & Colgan Ave. (Market Place),38.41917727,-122.7133076,55582
40600,Santa Rosa Ave. & Commercial Ct. (Market Place),38.41831752,-122.7136858,55582
53200,Santa Rosa Ave. & Court Rd.,38.40753712,-122.7132943,55582
41000,Santa Rosa Ave. & Court St.,38.40694343,-122.7136154,55582
52800,Santa Rosa Ave. & East Robles Ave.,38.39364653,-122.7134059,55582
41400,Santa Rosa Ave. & East Robles Ave.,38.39285094,-122.713726,55582
41300,Santa Rosa Ave. & East Robles Ave.,38.39552828,-122.7136883,55582
40400,Santa Rosa Ave. & Flower St.,38.42394662,-122.7136529,55582
40800,Santa Rosa Ave. & Hearn Ave.,38.41120177,-122.7136356,55582
52300,Santa Rosa Ave. & Horn Ave.,38.37628493,-122.7133048,55582
40200,Santa Rosa Ave. & Maple Ave.,38.43172196,-122.7114073,55582
53900,Santa Rosa Ave. & Maple Ave.,38.43176189,-122.7112025,55582
54000,Santa Rosa Ave. & Mill St.,38.43403946,-122.7116827,55582
41800,Santa Rosa Ave. & Mountain View Ave.,38.38035816,-122.7136211,55582
52400,Santa Rosa Ave. & Mountain View Ave.,38.38156553,-122.7134087,55582
41200,Santa Rosa Ave. & Northstar Dr.,38.39874911,-122.713673,55582
41900,Santa Rosa Ave. & Scenic Ave.,38.37606368,-122.7136121,55582
40100,Santa Rosa Ave. & Sebastopol Ave.,38.43393453,-122.7119073,55582
52700,Santa Rosa Ave. & Todd Rd.,38.38958579,-122.7133909,55582
41500,Santa Rosa Ave. & Todd Rd.,38.38975155,-122.7137317,55582
41600,Santa Rosa Ave./ Todd Rd.,38.38644509,-122.7137469,55582
52600,Santa Rosa Ave./ Todd Rd.,38.38750973,-122.713414,55582
53300,Santa Rosa Ave. & Yolanda Ave.,38.41180565,-122.7133466,55582
16200,Santa Rosa Junior College,38.45387671,-122.7175856,55582
00100,Santa Rosa Transit Mall,38.43868566,-122.7137267,55582
84620,Schellville  - Hwy. 116 & 121,38.23591427,-122.4614861,55580
80100,Schellville Hwy. 116 & 121,38.23595679,-122.4613023,55580
97400,S. East St. & Lake St.,38.8045029977,-123.0138806676,55581
60000,Sebastopol Post Office,38.40065804,-122.8235102,55578
22100,Sebastopol Rd. & Avalon Ave.,38.42994208,-122.7276989,55582
76500,Sebastopol Rd. & Billie Jean St.,38.42540353,-122.7626005,55582
21900,Sebastopol Rd. & Burbank Ave.,38.42839759,-122.7340787,55582
76000,Sebastopol Rd. & Burbank Rd.,38.42858803,-122.7343003,55582
76400,Sebastopol Rd. & Corporate Ctr. Pkwy.,38.4260678,-122.7539894,55582
21300,Sebastopol Rd. & Doubles Dr.,38.4252112,-122.7616723,55582
21800,Sebastopol Rd. & Hampton Way,38.4275369,-122.7378369,55582
76100,Sebastopol Rd. & Hampton Way,38.42767581,-122.7381264,55582
76300,Sebastopol Rd. & Lombardi Ln.,38.4263991,-122.7490453,55582
76200,Sebastopol Rd. & Stony Point Rd.,38.42688558,-122.7426622,55582
21700,Sebastopol Rd. & Stony Point Rd.,38.42661118,-122.7434526,55582
75900,Sebastopol Rd. & West Ave.,38.43017052,-122.7276876,55582
22000,Sebastopol Rd. & West Ave.,38.42924547,-122.7306624,55582
76600,Sebastopol Rd. & Wright Rd.,38.42492172,-122.7685422,55582
92700,Senior Center,38.6106643201,-122.8690835745,55584
20740,Senior Center,38.40257205,-122.8260864,55578
12040,Shiloh Center & Wal-Mart (Hembree),38.526131,-122.787926,55584
02520,Shiloh Center & Wal-Mart (Hembree),38.52636961,-122.7888748,55584
12030,Shiloh Center & Wal-Mart (McFarlane),38.527721,-122.788651,55584
89000,Shiloh Rd. & Conde Ln.,38.5256802127,-122.7965187411,55584
02510,Shiloh Rd. & Old Redwood Hwy.,38.52580463,-122.781513,55584
13500,Shiloh Rd. & Skylane Blvd.,38.52571067,-122.8016708,55584
13430,Shiloh Rd. & Skylane Blvd.,38.52582137,-122.802,55584
13400,Skylane Blvd. & Airport Blvd.,38.51230938,-122.7994828,55584
13410,Skylane Blvd. & Aviation Blvd.,38.51628642,-122.7989604,55584
13520,Skylane Blvd. & Aviation Blvd.,38.5162349,-122.7991452,55584
13510,Skylane Blvd. & Kittyhawk Blvd.,38.52187916,-122.8002943,55584
13420,Skylane Blvd. & Kittyhawk Blvd.,38.52260594,-122.8001615,55584
74600,Snyder Ln. & Eleanor St.,38.35948127,-122.6858463,55583
57400,Snyder Ln. & Eleanor St.,38.36020383,-122.6856466,55583
74500,Snyder Ln. & Eleanor St.,38.36159747,-122.6858496,55583
57500,Snyder Ln. & Golf Course Dr.,38.36648897,-122.6856118,55583
74400,Snyder Ln. & Golf Course Dr.,38.36693261,-122.6858995,55583
57600,Snyder Ln. & Holly,38.3694557907,-122.6856377721,55583
74300,Snyder Ln. & Holly Ave.,38.36982997,-122.6858966,55583
74700,Snyder Ln. & Keiser,38.35677569,-122.6858597,55583
57300,Snyder Ln. & Keiser,38.35708917,-122.6856481,55583
57700,Snyder Ln. & Mountain View Ave.,38.380432,-122.685822,55582
40250,Snyder Ln. & Mountain View Ave.,38.378834,-122.685951,55582
57100,Snyder Ln. & R.P. Expressway,38.34823037,-122.6854454,55583
75000,Snyder Ln. & RP Expressway,38.34492622,-122.685618,55583
74900,Snyder Ln. & RP Express Way,38.34787819,-122.685632,55583
56900,Snyder Ln. & Southwest Blvd.,38.3403001,-122.6853028,55583
13300,Sonoma Co. Airport Terminal Stop,38.51007376,-122.8053011,55584
27300,Sonoma Dev. Center,38.34874293,-122.5168092,55579
33500,Sonoma Dev. Center,38.34900159,-122.5168446,55579
84000,Sonoma Marketplace (Mid-Center Stop),38.29056248,-122.4625124,55580
87100,Sonoma Marketplace (Mid-Center Stop),38.29047059,-122.4624928,55580
83000,Sonoma Marketplace (on West Napa),38.2922349,-122.4621196,55580
81500,Sonoma Marketplace (Whole Foods),38.29158153,-122.4622362,55580
47940,Sonoma Mtn. Pkwy. (Ac. Petaluma SRJC),38.26661921,-122.6371181,55583
47920,Sonoma Mtn. Pkwy. & Colombard Rd.,38.26883044,-122.6428137,55583
54660,Sonoma Mtn. Pkwy. & Ely Rd.,38.2689426,-122.6439137,55583
47910,Sonoma Mtn. Pkwy & Maria Dr.,38.26803525,-122.6489003,55583
54670,Sonoma Mtn. Pkwy. & Maria Dr.,38.26824192,-122.6490768,55583
54640,Sonoma Mtn. Pkwy. (Petaluma SRJC),38.26737704,-122.6378794,55583
54630,Sonoma Mtn. Pkwy. & Rainier Ave.,38.26294282,-122.6300462,55583
47930,Sonoma Mtn. Pkwy & Reisling,38.26843848,-122.6404032,55583
54650,Sonoma Mtn. Pkwy. & Reisling,38.26903145,-122.6409865,55583
30500,Sonoma Plaza,38.29226799,-122.4580372,55580
56600,Sonoma State University,38.33807478,-122.6750043,55583
86900,Sonoma Valley Hospital,38.28848503,-122.4655984,55580
84200,Sonoma Valley Hospital,38.2886293,-122.4660909,55580
60100,South Main St. & Palm Ave.,38.3960519,-122.8210083,55578
97300,South St. & Cloverdale Blvd.,38.8007996612,-123.0160585519,55581
71300,Southwest Blvd. & Adrian Dr.,38.33620656,-122.7049658,55583
71200,Southwest Blvd. & Burton Ave.,38.33983129,-122.7004793,55583
71000,Southwest Blvd. & Country Club Dr.,38.34142841,-122.6944266,55583
71100,Southwest Blvd. & Seedfarm Dr.,38.34141781,-122.6969639,55583
21400,S.R. Corporate Center (The Lakes),38.42599396,-122.7512049,55582
66800,Standish Ave. & Sutton Pl.,38.3907609,-122.7231599,55582
64800,Standish Ave. & Sutton Pl.,38.39081543,-122.7233273,55582
66900,Standish Ave. & W. Robles Ave.,38.39384828,-122.723046,55582
10900,Starr Rd. & Buckingham Dr.,38.54878039,-122.8261309,55584
03700,Starr Rd. & Buckingham Dr.,38.54878559,-122.8259323,55584
10800,Starr Rd. & Coleen Dr.,38.55366945,-122.8261566,55584
03900,Starr Rd. & Colleen Dr.,38.55397225,-122.825971,55584
10600,Starr Rd. & Entrada,38.55896779,-122.8261991,55584
10700,Starr Rd. & Gumview Rd.,38.55622282,-122.8262255,55584
04000,Starr Rd. & Gumview Rd.,38.55636434,-122.8259637,55584
03800,Starr Rd. & Stellar Ln.,38.55126375,-122.8259735,55584
04200,Starr Rd. & Twin Oaks Ln.,38.55979085,-122.8259572,55584
51910,State Farm Dr. & City Hall Dr.,38.35045232,-122.7058571,55583
51930,State Farm Dr. & Commerce Blvd.,38.3574955106,-122.7123659849,55583
72720,State Farm Dr. & Enterprise Dr.,38.34525565,-122.7043932,55583
24800,St. Francis Ctr. (Hwy. 12 & Calistoga Rd.),38.46475266,-122.6536173,55582
35800,St. Francis Ctr. (Hwy. 12 & Calistoga Rd.),38.464987,-122.6524638,55582
71010,Technology Middle School,38.33932777,-122.7001032,55583
71050,Technology Middle School,38.339404957,-122.7006311862,55583
70740,Technology Middle School,38.339344162,-122.6998642087,55583
84610,Temelec - Arnold Dr. & Watmaugh Rd.,38.25997553,-122.4833148,55580
80200,Temelec - Arnold Dr. & Watmaugh Rd.,38.2598051,-122.4828819,55580
84500,Temelec Circle & Almeria Dr.,38.26717447,-122.4906072,55580
86700,Temelec Circle & Almeria Dr.,38.26737975,-122.4905274,55580
86600,Temelec Circle & Mission Dr.,38.26552377,-122.4891456,55580
84600,Temelec Circle & Mission Dr.,38.2654404,-122.4893495,55580
06800,Theresa Dr.,38.76796009,-122.9943246,55581
08100,Theresa Dr. & Hwy. 101,38.76766068,-122.9945439,55581
98200,The Tides (Bodega Bay),38.3286943774,-123.0445250304,55585
37000,Third St. & Brookwood,38.44265692,-122.7069169,55582
23600,Third St. & E St.,38.441212,-122.7098719,55582
64900,Todd Rd. & Standish Ave.,38.38707702,-122.7214575,55582
66700,Todd Rd. & Standish Ave.,38.38726903,-122.7226446,55582
82010,Valletti Dr.  & Lake St.,38.3219131989,-122.490285784,55580
82000,Valletti Dr.  & Lake St.,38.32174772,-122.489945,55580
26000,Valley Oaks & Pythian Rd.,38.43074626,-122.587388,55579
28900,Verano Ave. & Main St.,38.30294243,-122.4779746,55580
31900,Verano Ave. & Main St.,38.30270313,-122.4784528,55580
29000,Verano Ave. (outside FAHA),38.30284298,-122.4808773,55580
31800,Verano Ave. & Willow St.,38.3023881,-122.4846345,55580
29100,Verano Ave. & Willow St.,38.30235123,-122.4853811,55580
86610,Via Colombard & Carnation,38.2640845906,-122.4976170176,55580
17310,Villa Grande,38.47379244,-123.021535,55585
42100,Wal-Mart (parking lot),38.36828957,-122.7153847,55583
46500,Washington & Petaluma Blvd. (Downtown Petaluma),38.2357086,-122.6407987,55583
48900,Washington St. & Grey St.,38.23647686,-122.6390952,55583
84800,Watmaugh Rd. & Bear Flag Rd.,38.25811141,-122.4911749,55580
86500,Watmaugh Rd. & Bear Flag Rd.,38.25812983,-122.490781,55580
30900,West MacArthur St. & 4th St. West,38.2856323,-122.4671959,55580
13900,Westwind Blvd. & Airport Blvd.,38.50906653,-122.7957391,55584
13110,Westwind Blvd. & Airport Blvd.,38.50902829,-122.7959075,55584
20750,Wilton Ave. & Florence Ave.,38.40199041,-122.828764,55578
11110,Windsor Depot,38.54755278,-122.8168687,55584
87500,Windsor Depot (Town Green),38.5477930573,-122.8170393356,55584
87700,Windsor Rd.,38.54156225,-122.8169119,55584
13440,Windsor Rd.,38.53541264,-122.8166168,55584
87600,Windsor Rd. & Ginny Dr.,38.54439875,-122.8168942,55584
88100,Windsor Rd. & Mitchell Ln.,38.5326514269,-122.8135263103,55584
13460,Windsor Rd. & Patrick Ln.,38.54283958,-122.8167441,55584
87900,Windsor Rd. & Reiman Ln.,38.53643558,-122.8168868,55584
88000,Windsor Rd. & Vintage Green,38.53443858,-122.8167938,55584
87800,Windsor Rd. & Winemaker Way,38.53930264,-122.8168762,55584
11200,Windsor River Rd. & Old Red. Hwy.,38.54721113,-122.8119284,55584
03400,Windsor River Rd. & Old Redwood Hwy.,38.54742656,-122.8115173,55584
11000,Windsor River Rd. & Spencer St.,38.54716554,-122.8206467,55584
03600,Windsor River Rd. & Starr Rd.,38.5473518,-122.8252264,55584
11100,Windsor River Rd. (Windsor Depot),38.54713147,-122.8162381,55584
03500,Windsor River Rd. (Windsor Depot),38.54732459,-122.8161523,55584
30800,W. MacArthur & Broadway (Ac. Sonoma Vly. H.S.),38.28492627,-122.4599472,55580
30210,W. MacArthur St. & 4th St. West,38.28550484,-122.4670585,55580
81700,W. Napa St. & 5th St. W. (ac. Safeway),38.29293888,-122.4671215,55580
82800,W. Napa St. & 5th St. W. (front of Safeway),38.29277243,-122.4674966,55580
21200,Wright Rd. & Sebastopol Rd.,38.42531573,-122.7690532,55582
67000,W. Robles Ave. & Standish Ave.,38.39448975,-122.7246297,55582
64600,W. Robles Ave. & Standish Ave.,38.39436797,-122.7240261,55582