stop_id,stop_name,stop_lat,stop_lon,zone_id
1091722,ANGEL ISLAND FERRY TERMINAL,37.868787,-122.435241,
1091724,PIER 41,37.809525,-122.412259,
870003,SAN FRANCISCO FERRY BUILDING,37.795963,-122.392631,
1091727,SAUSALITO FERRY TERMINAL,37.856185,-122.477686,
1091728,TIBURON FERRY TERMINAL,37.872644,-122.455382,